[
{"id": 12171671, "title": "Interfaith Retreat Guest Rooms (Govinda)", "url": "https://www.airbnb.com/rooms/12171671", "loation": {"latitude": 40.74971, "longitude": -73.99533}},
{"id": 29820017, "title": "Cozy Apt in the Heart of West Village", "url": "https://www.airbnb.com/rooms/29820017", "loation": {"latitude": 40.73145, "longitude": -74.00621}},
{"id": 32678246, "title": "Private and Spacious Queen Room Across From MSG", "url": "https://www.airbnb.com/rooms/32678246", "loation": {"latitude": 40.749, "longitude": -73.992}},
{"id": 7542471, "title": "Luxe 1-Bedroom Flat Near Manhattan", "url": "https://www.airbnb.com/rooms/7542471", "loation": {"latitude": 40.77616, "longitude": -74.01414}},
{"id": 4750486, "title": "Sun-drenched 1BD in Upper East Side", "url": "https://www.airbnb.com/rooms/4750486", "loation": {"latitude": 40.79774, "longitude": -73.93244}},
{"id": 858695, "title": "Very Large Private Room on quiet st", "url": "https://www.airbnb.com/rooms/858695", "loation": {"latitude": 40.84058, "longitude": -73.91382}},
{"id": 593292, "title": "Penthouse Studio East 50s Terrace", "url": "https://www.airbnb.com/rooms/593292", "loation": {"latitude": 40.75128, "longitude": -73.97658}},
{"id": 6438456, "title": "Private! entire studio, own entrance, private bath", "url": "https://www.airbnb.com/rooms/6438456", "loation": {"latitude": 40.69528, "longitude": -73.93079}},
{"id": 16586422, "title": "White shared space with 0min to bus stop", "url": "https://www.airbnb.com/rooms/16586422", "loation": {"latitude": 40.69482, "longitude": -73.96419}},
{"id": 31221559, "title": "Flatbush Hideaway - Quiet and close to subway!", "url": "https://www.airbnb.com/rooms/31221559", "loation": {"latitude": 40.64445, "longitude": -73.94943}},
{"id": 14807332, "title": "Duplex with Private Bathroom by Times Square", "url": "https://www.airbnb.com/rooms/14807332", "loation": {"latitude": 40.7658, "longitude": -73.98795}},
{"id": 27598707, "title": "Freehand New York - Artist Room", "url": "https://www.airbnb.com/rooms/27598707", "loation": {"latitude": 40.74, "longitude": -73.986}},
{"id": 32317602, "title": "LARGE 2 Bedroom Midtown Manhattan Apartment!", "url": "https://www.airbnb.com/rooms/32317602", "loation": {"latitude": 40.76262, "longitude": -73.98865}},
{"id": 17339881, "title": "Brownstone Studio", "url": "https://www.airbnb.com/rooms/17339881", "loation": {"latitude": 40.68469, "longitude": -73.947}},
{"id": 749455, "title": "Lovely Loft space near Central Park & Times Square", "url": "https://www.airbnb.com/rooms/749455", "loation": {"latitude": 40.77938, "longitude": -73.98247}},
{"id": 29882998, "title": "Small but cozy room in Elizabeth", "url": "https://www.airbnb.com/rooms/29882998", "loation": {"latitude": 40.67141, "longitude": -74.20946}},
{"id": 15718486, "title": "Uptown Chic in Hoboken", "url": "https://www.airbnb.com/rooms/15718486", "loation": {"latitude": 40.75376, "longitude": -74.02635}},
{"id": 36513442, "title": "\u2605Premier Room One Queen Bed, City View\u2605", "url": "https://www.airbnb.com/rooms/36513442", "loation": {"latitude": 40.71455, "longitude": -73.99483}},
{"id": 21738018, "title": "2 Blocks from Times Square, Centrally Located!", "url": "https://www.airbnb.com/rooms/21738018", "loation": {"latitude": 40.76123, "longitude": -73.99022}},
{"id": 32678720, "title": "Great Room in the heart of Times Square!", "url": "https://www.airbnb.com/rooms/32678720", "loation": {"latitude": 40.759, "longitude": -73.988}},
{"id": 32023, "title": "FLAT MACDONOUGH", "url": "https://www.airbnb.com/rooms/32023", "loation": {"latitude": 40.68296, "longitude": -73.93662}},
{"id": 6037761, "title": "Spacious Room in East Village Architect\u2019s Home", "url": "https://www.airbnb.com/rooms/6037761", "loation": {"latitude": 40.727, "longitude": -73.989}},
{"id": 6958652, "title": "Brooklyn Room Available [furnished]", "url": "https://www.airbnb.com/rooms/6958652", "loation": {"latitude": 40.68928, "longitude": -73.93153}},
{"id": 779561, "title": "FULLY Furnished Studio \u2665 Manhattan", "url": "https://www.airbnb.com/rooms/779561", "loation": {"latitude": 40.73652, "longitude": -74.00876}},
{"id": 27538237, "title": "Grand Suite in Historic Brownstone", "url": "https://www.airbnb.com/rooms/27538237", "loation": {"latitude": 40.67166, "longitude": -73.94674}},
{"id": 2062476, "title": "A room in private house - 20-35 minutes  from NYC", "url": "https://www.airbnb.com/rooms/2062476", "loation": {"latitude": 40.70946, "longitude": -74.07432}},
{"id": 891117, "title": "Private Bedroom in Manhattan", "url": "https://www.airbnb.com/rooms/891117", "loation": {"latitude": 40.82264, "longitude": -73.94041}},
{"id": 19638293, "title": "Studio Apartment Minutes Away from Times Square", "url": "https://www.airbnb.com/rooms/19638293", "loation": {"latitude": 40.77082, "longitude": -74.01821}},
{"id": 24288869, "title": "Private Room+Beautiful Private Backyard Near City", "url": "https://www.airbnb.com/rooms/24288869", "loation": {"latitude": 40.69928, "longitude": -73.90616}},
{"id": 32676181, "title": "Accessible Two Bedded Suite With Kitchen near MSG", "url": "https://www.airbnb.com/rooms/32676181", "loation": {"latitude": 40.749, "longitude": -73.992}},
{"id": 4958223, "title": "Beautiful Central Park View", "url": "https://www.airbnb.com/rooms/4958223", "loation": {"latitude": 40.7962, "longitude": -73.96156}},
{"id": 27584413, "title": "Chic Designer Home Guest Studio", "url": "https://www.airbnb.com/rooms/27584413", "loation": {"latitude": 40.73469, "longitude": -73.85426}},
{"id": 1217318, "title": "Williamsburg Penthouse Hideaway", "url": "https://www.airbnb.com/rooms/1217318", "loation": {"latitude": 40.71024, "longitude": -73.9517}},
{"id": 20573006, "title": "Cute Quirky Garden apt, NYC adjacent", "url": "https://www.airbnb.com/rooms/20573006", "loation": {"latitude": 40.71465, "longitude": -74.0753}},
{"id": 6422875, "title": "Brooklyn Creative Snooze Factory", "url": "https://www.airbnb.com/rooms/6422875", "loation": {"latitude": 40.69271, "longitude": -73.94353}},
{"id": 1056185, "title": "Sunny+Cozy Double bedroom in BKLYN!", "url": "https://www.airbnb.com/rooms/1056185", "loation": {"latitude": 40.64851, "longitude": -73.94667}},
{"id": 3798941, "title": "Williamsburg Penthouse Guestroom", "url": "https://www.airbnb.com/rooms/3798941", "loation": {"latitude": 40.711, "longitude": -73.954}},
{"id": 31567374, "title": "Classic Brownstone Apt in a Historic Neighborhood", "url": "https://www.airbnb.com/rooms/31567374", "loation": {"latitude": 40.72161, "longitude": -74.07392}},
{"id": 1744216, "title": "Prime Williamsburg Large bedroom for 1 Long term", "url": "https://www.airbnb.com/rooms/1744216", "loation": {"latitude": 40.719, "longitude": -73.96}},
{"id": 63360, "title": "Safe and near subway& Manhattan NY NY retro style", "url": "https://www.airbnb.com/rooms/63360", "loation": {"latitude": 40.75384, "longitude": -73.91433}},
{"id": 903972, "title": "Great Bedroom in Manhattan", "url": "https://www.airbnb.com/rooms/903972", "loation": {"latitude": 40.82085, "longitude": -73.94025}},
{"id": 4282178, "title": "A Superhost SALE! DELUXE Room!", "url": "https://www.airbnb.com/rooms/4282178", "loation": {"latitude": 40.69724, "longitude": -73.94914}},
{"id": 15067858, "title": "Eco friendly, Jersey City, 15 min to NYC - Room 3", "url": "https://www.airbnb.com/rooms/15067858", "loation": {"latitude": 40.72783, "longitude": -74.06786}},
{"id": 8070245, "title": "Beautiful room close to Manhattan", "url": "https://www.airbnb.com/rooms/8070245", "loation": {"latitude": 40.72627, "longitude": -74.04993}},
{"id": 19314589, "title": "THE SMALL CHATEAU IN THE TREES", "url": "https://www.airbnb.com/rooms/19314589", "loation": {"latitude": 40.72408, "longitude": -73.98297}},
{"id": 5798177, "title": "Cozy Room in Brooklyn", "url": "https://www.airbnb.com/rooms/5798177", "loation": {"latitude": 40.69893, "longitude": -73.91124}},
{"id": 20933293, "title": "Cozy Moroccan 1BR APT in the heart of Astoria", "url": "https://www.airbnb.com/rooms/20933293", "loation": {"latitude": 40.76759, "longitude": -73.92463}},
{"id": 8943358, "title": "Loved by NYLocals Private Room SoHo", "url": "https://www.airbnb.com/rooms/8943358", "loation": {"latitude": 40.72476, "longitude": -74.00387}},
{"id": 32678721, "title": "Nice Room 1 block away from Times Square action!", "url": "https://www.airbnb.com/rooms/32678721", "loation": {"latitude": 40.759, "longitude": -73.988}},
{"id": 8440352, "title": "Private bedroom in great LES spot", "url": "https://www.airbnb.com/rooms/8440352", "loation": {"latitude": 40.71323, "longitude": -73.9878}},
{"id": 19179615, "title": "HEART OF BROOKLYN, QUEEN BED, 1 BLOCK FROM SUBWAY!", "url": "https://www.airbnb.com/rooms/19179615", "loation": {"latitude": 40.6908, "longitude": -73.95507}},
{"id": 34489385, "title": "Steps from Times Square and Central Park", "url": "https://www.airbnb.com/rooms/34489385", "loation": {"latitude": 40.762, "longitude": -73.983}},
{"id": 19121954, "title": "Central Location, 1 Block from Subway, Great Price", "url": "https://www.airbnb.com/rooms/19121954", "loation": {"latitude": 40.69117, "longitude": -73.95643}},
{"id": 11553403, "title": "GREAT Bedroom in center of the Lower East Side!", "url": "https://www.airbnb.com/rooms/11553403", "loation": {"latitude": 40.71815, "longitude": -73.98937}},
{"id": 6093352, "title": "Sunny Room 15min from Manhattan", "url": "https://www.airbnb.com/rooms/6093352", "loation": {"latitude": 40.7058, "longitude": -73.93803}},
{"id": 4192400, "title": "Private+Cozy Room w/ Superhost ($0 Cleaning Fee)!", "url": "https://www.airbnb.com/rooms/4192400", "loation": {"latitude": 40.69233, "longitude": -73.90579}},
{"id": 21884096, "title": "WeLive Wall Street -- Studio Double", "url": "https://www.airbnb.com/rooms/21884096", "loation": {"latitude": 40.70394, "longitude": -74.00589}},
{"id": 158955, "title": "PRIVATE and SUNNY Williamsburg Apt!", "url": "https://www.airbnb.com/rooms/158955", "loation": {"latitude": 40.70867, "longitude": -73.94284}},
{"id": 25460977, "title": "Fresh Studio in Brooklyn Townhouse", "url": "https://www.airbnb.com/rooms/25460977", "loation": {"latitude": 40.67, "longitude": -73.933}},
{"id": 26362, "title": "Times Square, Safe, Clean and Cozy!", "url": "https://www.airbnb.com/rooms/26362", "loation": {"latitude": 40.75527, "longitude": -73.99291}},
{"id": 20092506, "title": "Master room W OWN bathroom", "url": "https://www.airbnb.com/rooms/20092506", "loation": {"latitude": 40.79074, "longitude": -73.94232}},
{"id": 10748040, "title": "On Broadway, clean & comfy room", "url": "https://www.airbnb.com/rooms/10748040", "loation": {"latitude": 40.82903, "longitude": -73.94747}},
{"id": 22289683, "title": "Manhattan**1 block to train**15 min to Times sq", "url": "https://www.airbnb.com/rooms/22289683", "loation": {"latitude": 40.82656, "longitude": -73.94724}},
{"id": 9167889, "title": "A Unique studio apartment", "url": "https://www.airbnb.com/rooms/9167889", "loation": {"latitude": 40.80843, "longitude": -73.94125}},
{"id": 15223434, "title": "new sunshine room in chinatown train F is around", "url": "https://www.airbnb.com/rooms/15223434", "loation": {"latitude": 40.7135, "longitude": -73.99121}},
{"id": 945297, "title": "East Village Gay Friendly Dbl Room", "url": "https://www.airbnb.com/rooms/945297", "loation": {"latitude": 40.72836, "longitude": -73.98163}},
{"id": 22637100, "title": "Private room in Queens, Ny # 1", "url": "https://www.airbnb.com/rooms/22637100", "loation": {"latitude": 40.7, "longitude": -73.89}},
{"id": 3513303, "title": "Cute Room in Hip South Williamsburg", "url": "https://www.airbnb.com/rooms/3513303", "loation": {"latitude": 40.70848, "longitude": -73.95323}},
{"id": 20194665, "title": "20min To Times Square, 10min LGA", "url": "https://www.airbnb.com/rooms/20194665", "loation": {"latitude": 40.78088, "longitude": -73.90819}},
{"id": 15220, "title": "Best Location in NYC! TIMES SQUARE!", "url": "https://www.airbnb.com/rooms/15220", "loation": {"latitude": 40.75531, "longitude": -73.99293}},
{"id": 31495515, "title": "COZY ESTUDIO APARTMENT 10 MINUTES FROM NYC", "url": "https://www.airbnb.com/rooms/31495515", "loation": {"latitude": 40.76737, "longitude": -74.03536}},
{"id": 15222972, "title": "Minimalistic 1 bedroom in the heart of Manhattan", "url": "https://www.airbnb.com/rooms/15222972", "loation": {"latitude": 40.71231, "longitude": -73.99257}},
{"id": 32676188, "title": "Accessible Two Bedded Large One Bedroom in Midtown", "url": "https://www.airbnb.com/rooms/32676188", "loation": {"latitude": 40.749, "longitude": -73.992}},
{"id": 16627548, "title": "\"Desirable Deal on The Park\"", "url": "https://www.airbnb.com/rooms/16627548", "loation": {"latitude": 40.79798, "longitude": -73.95052}},
{"id": 6032168, "title": "Cozy Private Room in Brooklyn", "url": "https://www.airbnb.com/rooms/6032168", "loation": {"latitude": 40.69976, "longitude": -73.91255}},
{"id": 32749800, "title": "Nice Private Room in Manhattan", "url": "https://www.airbnb.com/rooms/32749800", "loation": {"latitude": 40.84493, "longitude": -73.93843}},
{"id": 21620762, "title": "1 Bedroom apartment", "url": "https://www.airbnb.com/rooms/21620762", "loation": {"latitude": 40.78743, "longitude": -73.95179}},
{"id": 31711274, "title": "Contemporary, Cozy  Retreat", "url": "https://www.airbnb.com/rooms/31711274", "loation": {"latitude": 40.6354, "longitude": -73.90039}},
{"id": 17255526, "title": "Brooklyn Bushwick", "url": "https://www.airbnb.com/rooms/17255526", "loation": {"latitude": 40.69718, "longitude": -73.92157}},
{"id": 23169714, "title": "MODERN CONDO MINUTES TO NYC **FREE PARKING**", "url": "https://www.airbnb.com/rooms/23169714", "loation": {"latitude": 40.79523, "longitude": -74.00388}},
{"id": 3543227, "title": "Private Suite 15min to Times Square", "url": "https://www.airbnb.com/rooms/3543227", "loation": {"latitude": 40.82193, "longitude": -73.94499}},
{"id": 133025, "title": "Midtown cozy convenient", "url": "https://www.airbnb.com/rooms/133025", "loation": {"latitude": 40.7463, "longitude": -73.97926}},
{"id": 19038815, "title": "1 Block from Subway, Central Location, Great Price", "url": "https://www.airbnb.com/rooms/19038815", "loation": {"latitude": 40.69144, "longitude": -73.956}},
{"id": 17711806, "title": "Private Room & Private bathroom 2mins to subway!", "url": "https://www.airbnb.com/rooms/17711806", "loation": {"latitude": 40.6778, "longitude": -73.9135}},
{"id": 22899900, "title": "Private Room A In Prime Location", "url": "https://www.airbnb.com/rooms/22899900", "loation": {"latitude": 40.74698, "longitude": -73.98906}},
{"id": 19204555, "title": "Bedroom in renovated apartment -Astoria", "url": "https://www.airbnb.com/rooms/19204555", "loation": {"latitude": 40.76012, "longitude": -73.9092}},
{"id": 25776914, "title": "BROOKLYN Quiet Den", "url": "https://www.airbnb.com/rooms/25776914", "loation": {"latitude": 40.64795, "longitude": -73.89337}},
{"id": 11620118, "title": "Amazing view from a private roof!", "url": "https://www.airbnb.com/rooms/11620118", "loation": {"latitude": 40.65959, "longitude": -73.98222}},
{"id": 32844588, "title": "2 Single Beds \u2605 Renovated \u2605 Next to Times Square", "url": "https://www.airbnb.com/rooms/32844588", "loation": {"latitude": 40.76035, "longitude": -73.98587}},
{"id": 37368518, "title": "Bright New Brooklyn Studio", "url": "https://www.airbnb.com/rooms/37368518", "loation": {"latitude": 40.69131, "longitude": -73.93003}},
{"id": 16014791, "title": "Clean style apt. Central midtwn near Javits", "url": "https://www.airbnb.com/rooms/16014791", "loation": {"latitude": 40.75536, "longitude": -73.9995}},
{"id": 13169559, "title": "Hell's Kitchen Enclave: a Diamond in the Rough.", "url": "https://www.airbnb.com/rooms/13169559", "loation": {"latitude": 40.76511, "longitude": -73.99432}},
{"id": 32777169, "title": "Beautiful Bedroom in Manhattan", "url": "https://www.airbnb.com/rooms/32777169", "loation": {"latitude": 40.84332, "longitude": -73.93829}},
{"id": 32922087, "title": "Private Bedroom in Manhattan", "url": "https://www.airbnb.com/rooms/32922087", "loation": {"latitude": 40.84505, "longitude": -73.93779}},
{"id": 16735801, "title": "Twin bed-Close to Columbia U & Central Park", "url": "https://www.airbnb.com/rooms/16735801", "loation": {"latitude": 40.80172, "longitude": -73.95538}},
{"id": 695465, "title": "The heart of the metropolis", "url": "https://www.airbnb.com/rooms/695465", "loation": {"latitude": 40.724, "longitude": -73.98}},
{"id": 28616437, "title": "NYC/NJ - MODERN & PRIVATE STUDIO 15min- EWR", "url": "https://www.airbnb.com/rooms/28616437", "loation": {"latitude": 40.70508, "longitude": -74.09865}},
{"id": 8213488, "title": "Bed-Stuy Gem with Private Entrance", "url": "https://www.airbnb.com/rooms/8213488", "loation": {"latitude": 40.68805, "longitude": -73.95103}},
{"id": 23336678, "title": "Manhattan**One block to train**15 min to Times sq", "url": "https://www.airbnb.com/rooms/23336678", "loation": {"latitude": 40.82724, "longitude": -73.94686}},
{"id": 16533105, "title": "Queen bed-Close to Columbia U & Central Park", "url": "https://www.airbnb.com/rooms/16533105", "loation": {"latitude": 40.80227, "longitude": -73.95523}},
{"id": 63299, "title": "BROOKLYN > Guest Room w/ Queen Bed in Williamsburg", "url": "https://www.airbnb.com/rooms/63299", "loation": {"latitude": 40.708, "longitude": -73.952}},
{"id": 6027345, "title": "Newly renovated historic brownstone", "url": "https://www.airbnb.com/rooms/6027345", "loation": {"latitude": 40.68242, "longitude": -73.94774}},
{"id": 29960687, "title": "Upper West Side Apartment near Central Park", "url": "https://www.airbnb.com/rooms/29960687", "loation": {"latitude": 40.785, "longitude": -73.975}},
{"id": 13560118, "title": "AMAZINGLY LOCATED ONE BEDROOM,  NEAR CENTRAL PARK", "url": "https://www.airbnb.com/rooms/13560118", "loation": {"latitude": 40.76712, "longitude": -73.98789}},
{"id": 21884206, "title": "WeLive Wall Street -- Studio Apartment", "url": "https://www.airbnb.com/rooms/21884206", "loation": {"latitude": 40.70426, "longitude": -74.00711}},
{"id": 16912472, "title": "Private East Village Bedroom &Roof Deck(manhattan)", "url": "https://www.airbnb.com/rooms/16912472", "loation": {"latitude": 40.72951, "longitude": -73.98239}},
{"id": 7858468, "title": "The Artist's Experience", "url": "https://www.airbnb.com/rooms/7858468", "loation": {"latitude": 40.76425, "longitude": -73.99162}},
{"id": 16805869, "title": "Cozier Orchard Street Room in Lower East Side!", "url": "https://www.airbnb.com/rooms/16805869", "loation": {"latitude": 40.71863, "longitude": -73.98958}},
{"id": 28940952, "title": "Modern, Well-Appointed Room in NYC!", "url": "https://www.airbnb.com/rooms/28940952", "loation": {"latitude": 40.69246, "longitude": -73.95863}},
{"id": 17941851, "title": "Tropical Getaway in Brooklyn at The Funky Loft", "url": "https://www.airbnb.com/rooms/17941851", "loation": {"latitude": 40.6974, "longitude": -73.92487}},
{"id": 21378759, "title": "Manhattan, Huge Room Near Central Park & Metro", "url": "https://www.airbnb.com/rooms/21378759", "loation": {"latitude": 40.794, "longitude": -73.945}},
{"id": 32981096, "title": "A melhor localiza\u00e7\u00e3o de Newark \u00e9 aqui", "url": "https://www.airbnb.com/rooms/32981096", "loation": {"latitude": 40.72947, "longitude": -74.15347}},
{"id": 26749031, "title": "Bright Bedroom Steps to train Minutes to Manhattan", "url": "https://www.airbnb.com/rooms/26749031", "loation": {"latitude": 40.7132, "longitude": -73.94164}},
{"id": 22192407, "title": "Heart of Manhattan. Just renovated home!", "url": "https://www.airbnb.com/rooms/22192407", "loation": {"latitude": 40.76109, "longitude": -73.98261}},
{"id": 21244390, "title": "Cozy room near Times Square", "url": "https://www.airbnb.com/rooms/21244390", "loation": {"latitude": 40.75703, "longitude": -73.99371}},
{"id": 8254405, "title": "Classic Harlem --- Economy Room", "url": "https://www.airbnb.com/rooms/8254405", "loation": {"latitude": 40.82205, "longitude": -73.9467}},
{"id": 903947, "title": "Beautiful Bedroom in Manhattan", "url": "https://www.airbnb.com/rooms/903947", "loation": {"latitude": 40.82124, "longitude": -73.93838}},
{"id": 2310594, "title": "Studio Apt. in East Williamsburg", "url": "https://www.airbnb.com/rooms/2310594", "loation": {"latitude": 40.70972, "longitude": -73.93864}},
{"id": 17147561, "title": "Best Location + Private Roof Deck", "url": "https://www.airbnb.com/rooms/17147561", "loation": {"latitude": 40.73109, "longitude": -73.98234}},
{"id": 5115372, "title": "Comfy Room \u201c1 Guest Only\u201d near LGA Airport", "url": "https://www.airbnb.com/rooms/5115372", "loation": {"latitude": 40.76374, "longitude": -73.87103}},
{"id": 2119216, "title": "Affordable, Private, Simple & Clean NYC Flat!", "url": "https://www.airbnb.com/rooms/2119216", "loation": {"latitude": 40.82029, "longitude": -73.93861}},
{"id": 18602823, "title": "Greatest Deal near EWR/NYC!", "url": "https://www.airbnb.com/rooms/18602823", "loation": {"latitude": 40.678, "longitude": -74.2}},
{"id": 40083618, "title": "A Brooklyn Stay", "url": "https://www.airbnb.com/rooms/40083618", "loation": {"latitude": 40.66417, "longitude": -73.95307}},
{"id": 34453822, "title": "Centrally located near Times Square & Bryant Park", "url": "https://www.airbnb.com/rooms/34453822", "loation": {"latitude": 40.756, "longitude": -73.986}},
{"id": 8899476, "title": "ENTIRE Floor,PRIVATE Bath&Entrance! SUPERHOST :))", "url": "https://www.airbnb.com/rooms/8899476", "loation": {"latitude": 40.69699, "longitude": -73.93387}},
{"id": 4936023, "title": "Nice studio in Midtown Manhattan", "url": "https://www.airbnb.com/rooms/4936023", "loation": {"latitude": 40.75462, "longitude": -73.96869}},
{"id": 106363, "title": "Bright Room With A Great River View", "url": "https://www.airbnb.com/rooms/106363", "loation": {"latitude": 40.82773, "longitude": -73.95231}},
{"id": 21172762, "title": "Spacious room near Times Square", "url": "https://www.airbnb.com/rooms/21172762", "loation": {"latitude": 40.75684, "longitude": -73.99465}},
{"id": 24392338, "title": "Amazing East Village Xtra Large Studio Apartment!", "url": "https://www.airbnb.com/rooms/24392338", "loation": {"latitude": 40.72361, "longitude": -73.9847}},
{"id": 11187722, "title": "Midtown Manhattan Hideaway", "url": "https://www.airbnb.com/rooms/11187722", "loation": {"latitude": 40.75577, "longitude": -73.99466}},
{"id": 21646774, "title": "STEPS TO LGA, Near CITIFIELD, JFK MANHATTAN(RM #4)", "url": "https://www.airbnb.com/rooms/21646774", "loation": {"latitude": 40.76918, "longitude": -73.8719}},
{"id": 29457275, "title": "Heart of Hell's Kitchen Private Mezzanine", "url": "https://www.airbnb.com/rooms/29457275", "loation": {"latitude": 40.76199, "longitude": -73.99253}},
{"id": 13763512, "title": "Classic Exposed Brick Apartment in East Village", "url": "https://www.airbnb.com/rooms/13763512", "loation": {"latitude": 40.7282, "longitude": -73.98001}},
{"id": 20356506, "title": "Beautiful Studio Right Next To Times Square!", "url": "https://www.airbnb.com/rooms/20356506", "loation": {"latitude": 40.7658, "longitude": -73.99087}},
{"id": 22971913, "title": ".Melinda's Place", "url": "https://www.airbnb.com/rooms/22971913", "loation": {"latitude": 40.66615, "longitude": -73.95426}},
{"id": 14918238, "title": "Beautiful Sunny Small Room", "url": "https://www.airbnb.com/rooms/14918238", "loation": {"latitude": 40.68624, "longitude": -73.95528}},
{"id": 4553721, "title": "Art Large bedroom Williamsburg Brownstone longterm", "url": "https://www.airbnb.com/rooms/4553721", "loation": {"latitude": 40.719, "longitude": -73.96}},
{"id": 10482554, "title": "Interfaith Retreat Guest Rooms (Mary)", "url": "https://www.airbnb.com/rooms/10482554", "loation": {"latitude": 40.74973, "longitude": -73.99515}},
{"id": 10043483, "title": "Cozy Private Entrance & Bathroom", "url": "https://www.airbnb.com/rooms/10043483", "loation": {"latitude": 40.77292, "longitude": -73.95015}},
{"id": 3463385, "title": "Gorgeous room in Manhattan", "url": "https://www.airbnb.com/rooms/3463385", "loation": {"latitude": 40.76717, "longitude": -73.95532}},
{"id": 11843397, "title": "Room 1/2 block from Central Park!", "url": "https://www.airbnb.com/rooms/11843397", "loation": {"latitude": 40.79533, "longitude": -73.94764}},
{"id": 21751800, "title": "Manhattan, Clean Room Near Central Park & Subway", "url": "https://www.airbnb.com/rooms/21751800", "loation": {"latitude": 40.794, "longitude": -73.945}},
{"id": 38645987, "title": "Charming  pre war Brownstone.", "url": "https://www.airbnb.com/rooms/38645987", "loation": {"latitude": 40.68592, "longitude": -73.9555}},
{"id": 4220151, "title": "Clean/Quiet Apt, Great Location, with washer/dryer", "url": "https://www.airbnb.com/rooms/4220151", "loation": {"latitude": 40.74588, "longitude": -74.00055}},
{"id": 17222454, "title": "Sun Room in Family Home by LaGuardia Airport LGA", "url": "https://www.airbnb.com/rooms/17222454", "loation": {"latitude": 40.76367, "longitude": -73.87088}},
{"id": 17777286, "title": "Brownstone studio near central park", "url": "https://www.airbnb.com/rooms/17777286", "loation": {"latitude": 40.80623, "longitude": -73.94047}},
{"id": 769448, "title": "Bedford Loft, Williamsburg Prime", "url": "https://www.airbnb.com/rooms/769448", "loation": {"latitude": 40.7179, "longitude": -73.96107}},
{"id": 9594995, "title": "Beautiful private 1BR apt in Harlem", "url": "https://www.airbnb.com/rooms/9594995", "loation": {"latitude": 40.82458, "longitude": -73.95038}},
{"id": 11146432, "title": "Cozy top floor room at Brooklyn&Breakfast", "url": "https://www.airbnb.com/rooms/11146432", "loation": {"latitude": 40.67963, "longitude": -73.97054}},
{"id": 1895196, "title": "Apt near Museum Mile", "url": "https://www.airbnb.com/rooms/1895196", "loation": {"latitude": 40.76981, "longitude": -73.95812}},
{"id": 17255880, "title": "Modern Rooftop Loft W/ Private Ensuite & Cityviews", "url": "https://www.airbnb.com/rooms/17255880", "loation": {"latitude": 40.6752, "longitude": -73.93215}},
{"id": 31333074, "title": "Miltons place", "url": "https://www.airbnb.com/rooms/31333074", "loation": {"latitude": 40.81438, "longitude": -73.94782}},
{"id": 12798739, "title": "Good Deal! Cozy room Near NYC/EWR", "url": "https://www.airbnb.com/rooms/12798739", "loation": {"latitude": 40.679, "longitude": -74.2}},
{"id": 14070671, "title": "Independent Basement Apt.2 bed  rooms, 1 Bath.", "url": "https://www.airbnb.com/rooms/14070671", "loation": {"latitude": 40.75479, "longitude": -73.85776}},
{"id": 1534782, "title": "Cozy", "url": "https://www.airbnb.com/rooms/1534782", "loation": {"latitude": 40.68249, "longitude": -73.97139}},
{"id": 24539281, "title": "43rd Street \u201cTIME SQUARE\u201d\nSingle bed.", "url": "https://www.airbnb.com/rooms/24539281", "loation": {"latitude": 40.75792, "longitude": -73.99172}},
{"id": 15271897, "title": "UNION SQUARE / Perfect Cozy Private Room!", "url": "https://www.airbnb.com/rooms/15271897", "loation": {"latitude": 40.73402, "longitude": -73.9862}},
{"id": 14885186, "title": "Huge Brownstone! Private Room! Clean! City in 15!", "url": "https://www.airbnb.com/rooms/14885186", "loation": {"latitude": 40.69385, "longitude": -73.94413}},
{"id": 39128784, "title": "Sonder | 116 John | Serene 1BR + Fitness Center", "url": "https://www.airbnb.com/rooms/39128784", "loation": {"latitude": 40.7081, "longitude": -74.00531}},
{"id": 18503701, "title": "Oriental Room in Upper Manhattan near Central Park", "url": "https://www.airbnb.com/rooms/18503701", "loation": {"latitude": 40.80584, "longitude": -73.95272}},
{"id": 14821603, "title": "Convenient Bushwick Room for 1 or 2 Guests", "url": "https://www.airbnb.com/rooms/14821603", "loation": {"latitude": 40.70033, "longitude": -73.93127}},
{"id": 657217, "title": "Prime location near Central Park !!", "url": "https://www.airbnb.com/rooms/657217", "loation": {"latitude": 40.7779, "longitude": -73.95246}},
{"id": 16202962, "title": "Stunning modern 1BR APT, 15min from grand central", "url": "https://www.airbnb.com/rooms/16202962", "loation": {"latitude": 40.74604, "longitude": -73.9217}},
{"id": 17376200, "title": "Nice clean room in Brooklyn", "url": "https://www.airbnb.com/rooms/17376200", "loation": {"latitude": 40.68469, "longitude": -73.9375}},
{"id": 4745879, "title": "West Village / Bleecker & Cornelia", "url": "https://www.airbnb.com/rooms/4745879", "loation": {"latitude": 40.731, "longitude": -74.004}},
{"id": 17294950, "title": "A Room with a View at The Funky Loft", "url": "https://www.airbnb.com/rooms/17294950", "loation": {"latitude": 40.69554, "longitude": -73.92458}},
{"id": 2451647, "title": "Bright, Modern Room in East Village!", "url": "https://www.airbnb.com/rooms/2451647", "loation": {"latitude": 40.72598, "longitude": -73.97778}},
{"id": 9240346, "title": "Charming Union Sq Studio w/Elevator", "url": "https://www.airbnb.com/rooms/9240346", "loation": {"latitude": 40.73318, "longitude": -73.98449}},
{"id": 14594286, "title": "On Broadway & 3 stops to Times Square", "url": "https://www.airbnb.com/rooms/14594286", "loation": {"latitude": 40.82957, "longitude": -73.94535}},
{"id": 7652104, "title": "Private Room Near NYC Best Deal", "url": "https://www.airbnb.com/rooms/7652104", "loation": {"latitude": 40.679, "longitude": -74.2}},
{"id": 19155616, "title": "Affordable master room near of LGA in Queens", "url": "https://www.airbnb.com/rooms/19155616", "loation": {"latitude": 40.75243, "longitude": -73.89553}},
{"id": 18314102, "title": "ROOMY STUDIO IN THE HEART OF MANHATTAN", "url": "https://www.airbnb.com/rooms/18314102", "loation": {"latitude": 40.74769, "longitude": -73.9784}},
{"id": 3208904, "title": "Chic Designer\u2019s Room & 2 Beds in Manhattan LES", "url": "https://www.airbnb.com/rooms/3208904", "loation": {"latitude": 40.71254, "longitude": -73.98535}},
{"id": 13941973, "title": "Affordable room near of LGA airport in Queens.", "url": "https://www.airbnb.com/rooms/13941973", "loation": {"latitude": 40.74071, "longitude": -73.89186}},
{"id": 4355934, "title": "The Hamilton Guestroom", "url": "https://www.airbnb.com/rooms/4355934", "loation": {"latitude": 40.81893, "longitude": -73.95308}},
{"id": 13216246, "title": "Comfy Greenpoint room w/ easy access to Manhattan!", "url": "https://www.airbnb.com/rooms/13216246", "loation": {"latitude": 40.721, "longitude": -73.947}},
{"id": 2045727, "title": "Cozy Room in Family Home..BKLYN!!!", "url": "https://www.airbnb.com/rooms/2045727", "loation": {"latitude": 40.68671, "longitude": -73.93346}},
{"id": 21409428, "title": "Huge Artistic Brick Wall Studio Sleep 6 Near NYC", "url": "https://www.airbnb.com/rooms/21409428", "loation": {"latitude": 40.74032, "longitude": -74.05945}},
{"id": 15858847, "title": "Classic Brownstone, a Private Studio Apartment", "url": "https://www.airbnb.com/rooms/15858847", "loation": {"latitude": 40.808, "longitude": -73.955}},
{"id": 3441930, "title": "Times Square Brand New Place", "url": "https://www.airbnb.com/rooms/3441930", "loation": {"latitude": 40.75842, "longitude": -73.99389}},
{"id": 2968070, "title": "Near Times Square and Hell's Kitchen", "url": "https://www.airbnb.com/rooms/2968070", "loation": {"latitude": 40.75971, "longitude": -73.98979}},
{"id": 2674267, "title": "Comfy UWS Room near Central Park & Times Square", "url": "https://www.airbnb.com/rooms/2674267", "loation": {"latitude": 40.77848, "longitude": -73.98334}},
{"id": 30068829, "title": "Midtown West - Sunny Queen Room", "url": "https://www.airbnb.com/rooms/30068829", "loation": {"latitude": 40.75659, "longitude": -73.99988}},
{"id": 157673, "title": "Large  Loft Style  Studio  Space", "url": "https://www.airbnb.com/rooms/157673", "loation": {"latitude": 40.68101, "longitude": -73.94081}},
{"id": 5557097, "title": "A private room in New York 20 min to Times Square", "url": "https://www.airbnb.com/rooms/5557097", "loation": {"latitude": 40.84898, "longitude": -73.93642}},
{"id": 22811207, "title": "Nice & cozy room located in Manhattan apt!!", "url": "https://www.airbnb.com/rooms/22811207", "loation": {"latitude": 40.82742, "longitude": -73.94878}},
{"id": 19567629, "title": "East Village. Best Space/Location 1 Bdrm 1 Person", "url": "https://www.airbnb.com/rooms/19567629", "loation": {"latitude": 40.72714, "longitude": -73.98279}},
{"id": 17992512, "title": "Charming Suite in Historic Home", "url": "https://www.airbnb.com/rooms/17992512", "loation": {"latitude": 40.62919, "longitude": -74.08107}},
{"id": 25678517, "title": "Upper West Side private room by Central Park", "url": "https://www.airbnb.com/rooms/25678517", "loation": {"latitude": 40.79411, "longitude": -73.96427}},
{"id": 23465912, "title": "Beautiful apartment - easy access to all", "url": "https://www.airbnb.com/rooms/23465912", "loation": {"latitude": 40.57879, "longitude": -74.11043}},
{"id": 6387033, "title": "Bright Cozy 2BR 15 Mins Time Square upto 6 Guests", "url": "https://www.airbnb.com/rooms/6387033", "loation": {"latitude": 40.764, "longitude": -74.035}},
{"id": 506575, "title": "Bronx Room Near Yankees + Harlem", "url": "https://www.airbnb.com/rooms/506575", "loation": {"latitude": 40.84937, "longitude": -73.91328}},
{"id": 16276632, "title": "Cozy Room in Family Home by LaGuardia Airport LGA", "url": "https://www.airbnb.com/rooms/16276632", "loation": {"latitude": 40.76335, "longitude": -73.87007}},
{"id": 5192165, "title": "Classic Harlem Brownstone - Manhattan", "url": "https://www.airbnb.com/rooms/5192165", "loation": {"latitude": 40.82306, "longitude": -73.94688}},
{"id": 783202, "title": "Charming Apt off Bleecker, First Fl", "url": "https://www.airbnb.com/rooms/783202", "loation": {"latitude": 40.73164, "longitude": -74.00327}},
{"id": 15896529, "title": "Bright room with private bathroom and rooftop", "url": "https://www.airbnb.com/rooms/15896529", "loation": {"latitude": 40.716, "longitude": -73.99}},
{"id": 28910978, "title": "Artistic house with murals", "url": "https://www.airbnb.com/rooms/28910978", "loation": {"latitude": 40.76173, "longitude": -73.87417}},
{"id": 3496384, "title": "Interfaith Retreat Guest Rooms (Om)", "url": "https://www.airbnb.com/rooms/3496384", "loation": {"latitude": 40.74977, "longitude": -73.99647}},
{"id": 7870403, "title": "Mins to Manhattan and Williamsburg!", "url": "https://www.airbnb.com/rooms/7870403", "loation": {"latitude": 40.74365, "longitude": -73.95377}},
{"id": 29965956, "title": "Cozy Apartment on UWS near Central Park", "url": "https://www.airbnb.com/rooms/29965956", "loation": {"latitude": 40.785, "longitude": -73.975}},
{"id": 31085213, "title": "NY MIDTOWN DOUBLE ROOM", "url": "https://www.airbnb.com/rooms/31085213", "loation": {"latitude": 40.756, "longitude": -73.99783}},
{"id": 25683401, "title": "Gorgeous Sunny Studio step away from Central Park", "url": "https://www.airbnb.com/rooms/25683401", "loation": {"latitude": 40.76996, "longitude": -73.9576}},
{"id": 18898808, "title": "BK's Finest Jack&Jill ShareRoom Close to Train/Bus", "url": "https://www.airbnb.com/rooms/18898808", "loation": {"latitude": 40.69674, "longitude": -73.92972}},
{"id": 24230182, "title": "Brand-new Room - 20 mins to Manhattan", "url": "https://www.airbnb.com/rooms/24230182", "loation": {"latitude": 40.70111, "longitude": -73.94471}},
{"id": 28227966, "title": "Beautiful One Bed", "url": "https://www.airbnb.com/rooms/28227966", "loation": {"latitude": 40.65925, "longitude": -73.89396}},
{"id": 2061725, "title": "Private Bath + 2 Beds Option, 15 mins to Manhattan", "url": "https://www.airbnb.com/rooms/2061725", "loation": {"latitude": 40.6922, "longitude": -73.92399}},
{"id": 4475128, "title": "Amazing Single Bedroom Only 5min From Central Park", "url": "https://www.airbnb.com/rooms/4475128", "loation": {"latitude": 40.78834, "longitude": -73.9472}},
{"id": 29965481, "title": "Cottage by the Water", "url": "https://www.airbnb.com/rooms/29965481", "loation": {"latitude": 40.657, "longitude": -73.832}},
{"id": 33023192, "title": "Retro room in Astoria - 15m to Manhattan", "url": "https://www.airbnb.com/rooms/33023192", "loation": {"latitude": 40.76516, "longitude": -73.92758}},
{"id": 13039122, "title": "Bk's Finest City life close to Transportation", "url": "https://www.airbnb.com/rooms/13039122", "loation": {"latitude": 40.69499, "longitude": -73.9283}},
{"id": 27312987, "title": "Bright and spacious room in Bushwick", "url": "https://www.airbnb.com/rooms/27312987", "loation": {"latitude": 40.6964, "longitude": -73.91366}},
{"id": 21346376, "title": "TRIBE \u2764\ufe0f Luxury in Midtown Manhattan / Times Sq", "url": "https://www.airbnb.com/rooms/21346376", "loation": {"latitude": 40.75827, "longitude": -73.99368}},
{"id": 10501838, "title": "Great Deal! Nice Room Near NYC/EWR", "url": "https://www.airbnb.com/rooms/10501838", "loation": {"latitude": 40.679, "longitude": -74.2}},
{"id": 13620412, "title": "Cozy, private bed & private bath", "url": "https://www.airbnb.com/rooms/13620412", "loation": {"latitude": 40.68499, "longitude": -73.94433}},
{"id": 3895007, "title": "13 Minutes \u2764 of NYC Times Square!", "url": "https://www.airbnb.com/rooms/3895007", "loation": {"latitude": 40.77163, "longitude": -74.03088}},
{"id": 6923359, "title": "Visit Hudson Yard /NYC 42rd ST or Time Square", "url": "https://www.airbnb.com/rooms/6923359", "loation": {"latitude": 40.751, "longitude": -74.049}},
{"id": 5390882, "title": "Charming Bedroom in Harlem", "url": "https://www.airbnb.com/rooms/5390882", "loation": {"latitude": 40.80226, "longitude": -73.94506}},
{"id": 33055126, "title": "Cute Private Place on Time Square", "url": "https://www.airbnb.com/rooms/33055126", "loation": {"latitude": 40.76156, "longitude": -73.98749}},
{"id": 235951, "title": "Stylish Studio with exclusive Terrace", "url": "https://www.airbnb.com/rooms/235951", "loation": {"latitude": 40.75348, "longitude": -73.97065}},
{"id": 32342541, "title": "Room Nearby train station to Times Square NYC", "url": "https://www.airbnb.com/rooms/32342541", "loation": {"latitude": 40.75204, "longitude": -73.9226}},
{"id": 12136198, "title": "5th ave/Broadway near Empire State", "url": "https://www.airbnb.com/rooms/12136198", "loation": {"latitude": 40.74771, "longitude": -73.98727}},
{"id": 9013280, "title": "Luxury studio Bedstuy Brooklyn", "url": "https://www.airbnb.com/rooms/9013280", "loation": {"latitude": 40.68757, "longitude": -73.93032}},
{"id": 934418, "title": "Cozy 1-Bedroom Flat near Manhattan", "url": "https://www.airbnb.com/rooms/934418", "loation": {"latitude": 40.77993, "longitude": -74.01796}},
{"id": 17533091, "title": "Private room near new 2nd Ave. Q train!", "url": "https://www.airbnb.com/rooms/17533091", "loation": {"latitude": 40.78025, "longitude": -73.94802}},
{"id": 16224040, "title": "Romantic Rooftop Studio with 360 Brooklyn views!", "url": "https://www.airbnb.com/rooms/16224040", "loation": {"latitude": 40.68275, "longitude": -73.98562}},
{"id": 39863817, "title": "LUXURY FOR LESS\nBig Luxe Apt or a tiny hotel room?", "url": "https://www.airbnb.com/rooms/39863817", "loation": {"latitude": 40.69451, "longitude": -73.93203}},
{"id": 31994, "title": "Room with En Suite Bathroom & Deck", "url": "https://www.airbnb.com/rooms/31994", "loation": {"latitude": 40.688, "longitude": -73.964}},
{"id": 22241696, "title": "Private Room C In Prime Location", "url": "https://www.airbnb.com/rooms/22241696", "loation": {"latitude": 40.74535, "longitude": -73.99023}},
{"id": 36033412, "title": "138 Bowery, Standard Queen", "url": "https://www.airbnb.com/rooms/36033412", "loation": {"latitude": 40.71819, "longitude": -73.99403}},
{"id": 36640918, "title": "\u2605Premier Room Two Twin Beds, City View\u2605", "url": "https://www.airbnb.com/rooms/36640918", "loation": {"latitude": 40.71491, "longitude": -73.99503}},
{"id": 20392393, "title": "Cozy midtown apt next to metro & Empire State bldg", "url": "https://www.airbnb.com/rooms/20392393", "loation": {"latitude": 40.7433, "longitude": -73.97919}},
{"id": 1399448, "title": "\u2605HUGE beautiful E. Villager 2nd Av\u2605", "url": "https://www.airbnb.com/rooms/1399448", "loation": {"latitude": 40.72463, "longitude": -73.98938}},
{"id": 33621851, "title": "Orchard Queen", "url": "https://www.airbnb.com/rooms/33621851", "loation": {"latitude": 40.721, "longitude": -73.989}},
{"id": 38906302, "title": "Manhattan Charm, Brooklyn Price!", "url": "https://www.airbnb.com/rooms/38906302", "loation": {"latitude": 40.70515, "longitude": -73.943}},
{"id": 21306544, "title": "NYC @ Midtown \u26a1 12 Minutes!", "url": "https://www.airbnb.com/rooms/21306544", "loation": {"latitude": 40.77177, "longitude": -74.03516}},
{"id": 27280189, "title": "Private 4D Room in 4BR/2BA APT in Hell's Kitchen", "url": "https://www.airbnb.com/rooms/27280189", "loation": {"latitude": 40.75981, "longitude": -73.99011}},
{"id": 10058582, "title": "Private Room Minutes from NYC/EWR", "url": "https://www.airbnb.com/rooms/10058582", "loation": {"latitude": 40.679, "longitude": -74.2}},
{"id": 32364475, "title": "TIMES SQUARE!!! COZY AND COMFY PRIVATE ROOM!!!!", "url": "https://www.airbnb.com/rooms/32364475", "loation": {"latitude": 40.76282, "longitude": -73.98236}},
{"id": 3360707, "title": "The Hideaway", "url": "https://www.airbnb.com/rooms/3360707", "loation": {"latitude": 40.81981, "longitude": -73.95418}},
{"id": 11549920, "title": "Luxe 1-Bedroom Loft Near Manhattan", "url": "https://www.airbnb.com/rooms/11549920", "loation": {"latitude": 40.77752, "longitude": -74.01549}},
{"id": 5567361, "title": "Modern Apt - Vibrant Neighborhood!", "url": "https://www.airbnb.com/rooms/5567361", "loation": {"latitude": 40.65507, "longitude": -73.95824}},
{"id": 10482409, "title": "Interfaith Retreat Guest Rooms (Faith)", "url": "https://www.airbnb.com/rooms/10482409", "loation": {"latitude": 40.74896, "longitude": -73.99657}},
{"id": 21594210, "title": "It's a Beautiful Day in Bed-Stuy!", "url": "https://www.airbnb.com/rooms/21594210", "loation": {"latitude": 40.67794, "longitude": -73.90639}},
{"id": 34453828, "title": "Chic Boutique Hotel in Times Square - Queen Bed", "url": "https://www.airbnb.com/rooms/34453828", "loation": {"latitude": 40.756, "longitude": -73.986}},
{"id": 32683537, "title": "Stay in the Theater District Near Broadway Shows", "url": "https://www.airbnb.com/rooms/32683537", "loation": {"latitude": 40.76, "longitude": -73.987}},
{"id": 18076273, "title": "Lovely & bright Brooklyn room close to train", "url": "https://www.airbnb.com/rooms/18076273", "loation": {"latitude": 40.7331, "longitude": -73.95837}},
{"id": 9925507, "title": "The Fig: Brooklyn's TinyHome Cabin in Williamsburg", "url": "https://www.airbnb.com/rooms/9925507", "loation": {"latitude": 40.71255, "longitude": -73.94881}},
{"id": 6992831, "title": "Big 1 Bedroom Brooklyn Ditmas Park", "url": "https://www.airbnb.com/rooms/6992831", "loation": {"latitude": 40.63504, "longitude": -73.96603}},
{"id": 8880999, "title": "NicE Room  with Private Bathroom BK:) SUPERHOST :)", "url": "https://www.airbnb.com/rooms/8880999", "loation": {"latitude": 40.69883, "longitude": -73.93364}},
{"id": 34490377, "title": "Accessible room with Roll-In Shower, Times Square", "url": "https://www.airbnb.com/rooms/34490377", "loation": {"latitude": 40.762, "longitude": -73.983}},
{"id": 27735126, "title": "Cozy Shared pl by Central Park(Female Guests Only)", "url": "https://www.airbnb.com/rooms/27735126", "loation": {"latitude": 40.80033, "longitude": -73.94201}},
{"id": 18908638, "title": "Renovated 20min train to enter city 5min to subway", "url": "https://www.airbnb.com/rooms/18908638", "loation": {"latitude": 40.63993, "longitude": -73.98209}},
{"id": 7301788, "title": "Beautiful 1 bdrm apt close to path!", "url": "https://www.airbnb.com/rooms/7301788", "loation": {"latitude": 40.73895, "longitude": -74.03254}},
{"id": 4532913, "title": "Williamsburg private clean cozy RM", "url": "https://www.airbnb.com/rooms/4532913", "loation": {"latitude": 40.71909, "longitude": -73.95998}},
{"id": 28346402, "title": "Room at walking distance to the Empire State!", "url": "https://www.airbnb.com/rooms/28346402", "loation": {"latitude": 40.74381, "longitude": -73.97909}},
{"id": 20566445, "title": "Amazing Backyard Studio (Williamsburg)", "url": "https://www.airbnb.com/rooms/20566445", "loation": {"latitude": 40.70834, "longitude": -73.94717}},
{"id": 3004348, "title": "Modern Stay in Brownstone Brooklyn", "url": "https://www.airbnb.com/rooms/3004348", "loation": {"latitude": 40.68426, "longitude": -73.95054}},
{"id": 8615062, "title": "WEST VILLAGE CHARM - BEST LOCATION!", "url": "https://www.airbnb.com/rooms/8615062", "loation": {"latitude": 40.73464, "longitude": -74.00084}},
{"id": 6157276, "title": "Private Comfort Room! Near Airport New York City", "url": "https://www.airbnb.com/rooms/6157276", "loation": {"latitude": 40.76664, "longitude": -73.87577}},
{"id": 15067291, "title": "Private Room in  Manhattan", "url": "https://www.airbnb.com/rooms/15067291", "loation": {"latitude": 40.8117, "longitude": -73.94563}},
{"id": 29855428, "title": "Cozy 1 bedroom Apartment  5 min from LGA!", "url": "https://www.airbnb.com/rooms/29855428", "loation": {"latitude": 40.76373, "longitude": -73.86508}},
{"id": 3799598, "title": "\u2605Unique two bedroom on 2nd Avenue\u2605", "url": "https://www.airbnb.com/rooms/3799598", "loation": {"latitude": 40.72328, "longitude": -73.98926}},
{"id": 1628564, "title": "Stylish Room on Express Line to Midtown", "url": "https://www.airbnb.com/rooms/1628564", "loation": {"latitude": 40.83942, "longitude": -73.93855}},
{"id": 28635684, "title": "Room with a VIEW next to Times Square!", "url": "https://www.airbnb.com/rooms/28635684", "loation": {"latitude": 40.76539, "longitude": -73.99145}},
{"id": 35029766, "title": "Watson Hotel, Standard Double Double", "url": "https://www.airbnb.com/rooms/35029766", "loation": {"latitude": 40.76864, "longitude": -73.9864}},
{"id": 9248049, "title": "NYC Fantastic Apartment (very quiet & private bath", "url": "https://www.airbnb.com/rooms/9248049", "loation": {"latitude": 40.76637, "longitude": -73.98342}},
{"id": 21609205, "title": "It's Always Sunny in Bed-Stuy!", "url": "https://www.airbnb.com/rooms/21609205", "loation": {"latitude": 40.67653, "longitude": -73.90814}},
{"id": 19245145, "title": "Newly renoated stidio near Empire State Building", "url": "https://www.airbnb.com/rooms/19245145", "loation": {"latitude": 40.74765, "longitude": -73.9873}},
{"id": 25673527, "title": "Private Apartment with 2 BEDs at Union Square", "url": "https://www.airbnb.com/rooms/25673527", "loation": {"latitude": 40.73579, "longitude": -73.98636}},
{"id": 2631224, "title": "Sunny Room in Charming Two Bedroom Apartment", "url": "https://www.airbnb.com/rooms/2631224", "loation": {"latitude": 40.823, "longitude": -73.946}},
{"id": 648047, "title": "Cute, comfortable room in Gramercy", "url": "https://www.airbnb.com/rooms/648047", "loation": {"latitude": 40.737, "longitude": -73.98199}},
{"id": 1145337, "title": "Spacious Private Room -East Village", "url": "https://www.airbnb.com/rooms/1145337", "loation": {"latitude": 40.73125, "longitude": -73.98344}},
{"id": 19295911, "title": "Modern, Clean 1 bedroom Apartment in Bushwick", "url": "https://www.airbnb.com/rooms/19295911", "loation": {"latitude": 40.68873, "longitude": -73.91508}},
{"id": 453094, "title": "Bedroom with Garden at the Back", "url": "https://www.airbnb.com/rooms/453094", "loation": {"latitude": 40.688, "longitude": -73.964}},
{"id": 32805414, "title": "Deluxe King in Times Square - Recently Renovated!", "url": "https://www.airbnb.com/rooms/32805414", "loation": {"latitude": 40.76057, "longitude": -73.98583}},
{"id": 21306417, "title": "NYC Times Square  13 Mins!", "url": "https://www.airbnb.com/rooms/21306417", "loation": {"latitude": 40.77099, "longitude": -74.03275}},
{"id": 7837816, "title": "Bright, Cozy room in Brooklyn", "url": "https://www.airbnb.com/rooms/7837816", "loation": {"latitude": 40.69695, "longitude": -73.95951}},
{"id": 30964040, "title": "Beautiful shared place by Times Square, Midtown.", "url": "https://www.airbnb.com/rooms/30964040", "loation": {"latitude": 40.76333, "longitude": -73.98806}},
{"id": 23942226, "title": "Bushwick Room w Private Bath, 1 Block to Subway", "url": "https://www.airbnb.com/rooms/23942226", "loation": {"latitude": 40.70072, "longitude": -73.91359}},
{"id": 21147249, "title": "Spacious Bedroom in Renovated Apartment- Astoria", "url": "https://www.airbnb.com/rooms/21147249", "loation": {"latitude": 40.75811, "longitude": -73.90954}},
{"id": 36108965, "title": "Dylan Hotel NYC - Luxury King Room", "url": "https://www.airbnb.com/rooms/36108965", "loation": {"latitude": 40.75141, "longitude": -73.97857}},
{"id": 35078177, "title": "Posh Junior loft only 10 mins from Manhattan (NYC)", "url": "https://www.airbnb.com/rooms/35078177", "loation": {"latitude": 40.7207, "longitude": -74.06527}},
{"id": 21770277, "title": "Private Bedroom in Artsy Airbnb: Room \"L\"", "url": "https://www.airbnb.com/rooms/21770277", "loation": {"latitude": 40.65848, "longitude": -73.952}},
{"id": 22050046, "title": "Cozy Corner In Heart of Manhattan", "url": "https://www.airbnb.com/rooms/22050046", "loation": {"latitude": 40.74669, "longitude": -73.98311}},
{"id": 20115612, "title": "Spacious private room near central park", "url": "https://www.airbnb.com/rooms/20115612", "loation": {"latitude": 40.79012, "longitude": -73.94333}},
{"id": 18473439, "title": "Remodeled 20min train to enter city 5min to subway", "url": "https://www.airbnb.com/rooms/18473439", "loation": {"latitude": 40.63952, "longitude": -73.98205}},
{"id": 13941308, "title": "# CENTRAL PARK - 3 stops away (32\"TV room)", "url": "https://www.airbnb.com/rooms/13941308", "loation": {"latitude": 40.81922, "longitude": -73.95276}}
]